[{"id":1997,"name":"Rio de Janeiro","country_id":31,"country_code":"BR","latitude":"-22.90684670","longitude":"-43.17289650"},{"id":1998,"name":"Minas Gerais","country_id":31,"country_code":"BR","latitude":"-18.51217800","longitude":"-44.55503080"},{"id":1999,"name":"Amap\u00e1","country_id":31,"country_code":"BR","latitude":"0.90199250","longitude":"-52.00295650"},{"id":2000,"name":"Goi\u00e1s","country_id":31,"country_code":"BR","latitude":"-15.82703690","longitude":"-49.83622370"},{"id":2001,"name":"Rio Grande do Sul","country_id":31,"country_code":"BR","latitude":"-30.03463160","longitude":"-51.21769860"},{"id":2002,"name":"Bahia","country_id":31,"country_code":"BR","latitude":"26.11353900","longitude":"-80.10620400"},{"id":2003,"name":"Sergipe","country_id":31,"country_code":"BR","latitude":"-10.57409340","longitude":"-37.38565810"},{"id":2004,"name":"Amazonas","country_id":31,"country_code":"BR","latitude":null,"longitude":null},{"id":2005,"name":"Para\u00edba","country_id":31,"country_code":"BR","latitude":"-7.23996090","longitude":"-36.78195050"},{"id":2006,"name":"Pernambuco","country_id":31,"country_code":"BR","latitude":"-8.81371730","longitude":"-36.95410700"},{"id":2007,"name":"Alagoas","country_id":31,"country_code":"BR","latitude":"-9.57130580","longitude":"-36.78195050"},{"id":2008,"name":"Piau\u00ed","country_id":31,"country_code":"BR","latitude":"-7.71834010","longitude":"-42.72892360"},{"id":2009,"name":"Par\u00e1","country_id":31,"country_code":"BR","latitude":"-1.99812710","longitude":"-54.93061520"},{"id":2010,"name":"Mato Grosso do Sul","country_id":31,"country_code":"BR","latitude":"-20.77222950","longitude":"-54.78515310"},{"id":2011,"name":"Mato Grosso","country_id":31,"country_code":"BR","latitude":"-12.68187120","longitude":"-56.92109900"},{"id":2012,"name":"Acre","country_id":31,"country_code":"BR","latitude":"32.93305200","longitude":"35.08267800"},{"id":2013,"name":"Rond\u00f4nia","country_id":31,"country_code":"BR","latitude":"-11.50573410","longitude":"-63.58061100"},{"id":2014,"name":"Santa Catarina","country_id":31,"country_code":"BR","latitude":null,"longitude":null},{"id":2015,"name":"Maranh\u00e3o","country_id":31,"country_code":"BR","latitude":"-4.96094980","longitude":"-45.27441590"},{"id":2016,"name":"Cear\u00e1","country_id":31,"country_code":"BR","latitude":"-5.49839770","longitude":"-39.32062410"},{"id":2017,"name":"Federal District","country_id":31,"country_code":"BR","latitude":"-15.79976540","longitude":"-47.86447150"},{"id":2018,"name":"Esp\u00edrito Santo","country_id":31,"country_code":"BR","latitude":"-19.18342290","longitude":"-40.30886260"},{"id":2019,"name":"Rio Grande do Norte","country_id":31,"country_code":"BR","latitude":"-5.40258030","longitude":"-36.95410700"},{"id":2020,"name":"Tocantins","country_id":31,"country_code":"BR","latitude":"-10.17528000","longitude":"-48.29824740"},{"id":2021,"name":"S\u00e3o Paulo","country_id":31,"country_code":"BR","latitude":"-23.55051990","longitude":"-46.63330940"},{"id":2022,"name":"Paran\u00e1","country_id":31,"country_code":"BR","latitude":"-25.25208880","longitude":"-52.02154150"},{"id":4858,"name":"Roraima","country_id":31,"country_code":"BR","latitude":"2.73759710","longitude":"-62.07509980"}]