[
  {
    "id": 4006,
    "name": "Meghalaya",
    "country_id": 101,
    "country_code": "IN",
    "latitude": "25.46703080",
    "longitude": "91.36621600",
    "state_code": 17
  },
  {
    "id": 4007,
    "name": "Haryana",
    "country_id": 101,
    "country_code": "IN",
    "latitude": "29.05877570",
    "longitude": "76.08560100",
    "state_code": 6
  },
  {
    "id": 4008,
    "name": "Maharashtra",
    "country_id": 101,
    "country_code": "IN",
    "latitude": "19.75147980",
    "longitude": "75.71388840",
    "state_code": 27

  },
  {
    "id": 4009,
    "name": "Goa",
    "country_id": 101,
    "country_code": "IN",
    "latitude": "15.29932650",
    "longitude": "74.12399600",
    "state_code": 30
  },
  {
    "id": 4010,
    "name": "Manipur",
    "country_id": 101,
    "country_code": "IN",
    "latitude": "24.66371730",
    "longitude": "93.90626880",
    "state_code": 14
  },
  {
    "id": 4011,
    "name": "Puducherry",
    "country_id": 101,
    "country_code": "IN",
    "latitude": "11.94159150",
    "longitude": "79.80831330",
    "state_code": 34
  },
  {
    "id": 4012,
    "name": "Telangana",
    "country_id": 101,
    "country_code": "IN",
    "latitude": "18.11243720",
    "longitude": "79.01929970",
    "state_code": 36
  },
  {
    "id": 4013,
    "name": "Odisha",
    "country_id": 101,
    "country_code": "IN",
    "latitude": "20.95166580",
    "longitude": "85.09852360",
    "state_code": 21
  },
  {
    "id": 4014,
    "name": "Rajasthan",
    "country_id": 101,
    "country_code": "IN",
    "latitude": "27.02380360",
    "longitude": "74.21793260",
    "state_code": 8
  },
  {
    "id": 4015,
    "name": "Punjab",
    "country_id": 101,
    "country_code": "IN",
    "latitude": null,
    "longitude": null,
    "state_code": 3
  },
  {
    "id": 4016,
    "name": "Uttarakhand",
    "country_id": 101,
    "country_code": "IN",
    "latitude": "30.06675300",
    "longitude": "79.01929970",
    "state_code": 5
  },
  {
    "id": 4017,
    "name": "Andhra Pradesh",
    "country_id": 101,
    "country_code": "IN",
    "latitude": "15.91289980",
    "longitude": "79.73998750",
    "state_code": 37
  },
  {
    "id": 4018,
    "name": "Nagaland",
    "country_id": 101,
    "country_code": "IN",
    "latitude": "26.15843540",
    "longitude": "94.56244260",
    "state_code": 13
  },
  {
    "id": 4019,
    "name": "Lakshadweep",
    "country_id": 101,
    "country_code": "IN",
    "latitude": "10.32802650",
    "longitude": "72.78463360",
    "state_code": 31
  },
  {
    "id": 4020,
    "name": "Himachal Pradesh",
    "country_id": 101,
    "country_code": "IN",
    "latitude": "31.10482940",
    "longitude": "77.17339010",
    "state_code": 2
  },
  {
    "id": 4021,
    "name": "Delhi",
    "country_id": 101,
    "country_code": "IN",
    "latitude": "28.70405920",
    "longitude": "77.10249020",
    "state_code": 7
  },
  {
    "id": 4022,
    "name": "Uttar Pradesh",
    "country_id": 101,
    "country_code": "IN",
    "latitude": "26.84670880",
    "longitude": "80.94615920",
    "state_code": 9
  },
  {
    "id": 4023,
    "name": "Andaman and Nicobar Islands",
    "country_id": 101,
    "country_code": "IN",
    "latitude": "11.74008670",
    "longitude": "92.65864010",
    "state_code": 35
  },
  {
    "id": 4024,
    "name": "Arunachal Pradesh",
    "country_id": 101,
    "country_code": "IN",
    "latitude": "28.21799940",
    "longitude": "94.72775280",
    "state_code": 12
  },
  {
    "id": 4025,
    "name": "Jharkhand",
    "country_id": 101,
    "country_code": "IN",
    "latitude": "23.61018080",
    "longitude": "85.27993540",
    "state_code": 20
  },
  {
    "id": 4026,
    "name": "Karnataka",
    "country_id": 101,
    "country_code": "IN",
    "latitude": "15.31727750",
    "longitude": "75.71388840",
    "state_code": 29
  },
  {
    "id": 4027,
    "name": "Assam",
    "country_id": 101,
    "country_code": "IN",
    "latitude": "26.20060430",
    "longitude": "92.93757390",
    "state_code": 18
  },
  {
    "id": 4028,
    "name": "Kerala",
    "country_id": 101,
    "country_code": "IN",
    "latitude": "10.85051590",
    "longitude": "76.27108330",
    "state_code": 32
  },
  {
    "id": 4029,
    "name": "Jammu and Kashmir",
    "country_id": 101,
    "country_code": "IN",
    "latitude": "33.27783900",
    "longitude": "75.34121790",
    "state_code": 1
  },
  {
    "id": 4030,
    "name": "Gujarat",
    "country_id": 101,
    "country_code": "IN",
    "latitude": "22.25865200",
    "longitude": "71.19238050",
    "state_code": 24
  },
  {
    "id": 4031,
    "name": "Chandigarh",
    "country_id": 101,
    "country_code": "IN",
    "latitude": "30.73331480",
    "longitude": "76.77941790",
    "state_code": 4
  },
  {
    "id": 4033,
    "name": "Dadra and Nagar Haveli and Daman and Diu",
    "country_id": 101,
    "country_code": "IN",
    "latitude": "20.39737360",
    "longitude": "72.83279910",
    "state_code": 26
  },
  {
    "id": 4034,
    "name": "Sikkim",
    "country_id": 101,
    "country_code": "IN",
    "latitude": "27.53297180",
    "longitude": "88.51221780",
    "state_code": 11
  },
  {
    "id": 4035,
    "name": "Tamil Nadu",
    "country_id": 101,
    "country_code": "IN",
    "latitude": "11.12712250",
    "longitude": "78.65689420",
    "state_code": 33
  },
  {
    "id": 4036,
    "name": "Mizoram",
    "country_id": 101,
    "country_code": "IN",
    "latitude": "23.16454300",
    "longitude": "92.93757390",
    "state_code": 15
  },
  {
    "id": 4037,
    "name": "Bihar",
    "country_id": 101,
    "country_code": "IN",
    "latitude": "25.09607420",
    "longitude": "85.31311940",
    "state_code": 10
  },
  {
    "id": 4038,
    "name": "Tripura",
    "country_id": 101,
    "country_code": "IN",
    "latitude": "23.94084820",
    "longitude": "91.98815270",
    "state_code": 16
  },
  {
    "id": 4039,
    "name": "Madhya Pradesh",
    "country_id": 101,
    "country_code": "IN",
    "latitude": "22.97342290",
    "longitude": "78.65689420",
    "state_code": 23
  },
  {
    "id": 4040,
    "name": "Chhattisgarh",
    "country_id": 101,
    "country_code": "IN",
    "latitude": "21.27865670",
    "longitude": "81.86614420",
    "state_code": 22
  },
  {
    "id": 4852,
    "name": "Ladakh",
    "country_id": 101,
    "country_code": "IN",
    "latitude": "34.22684750",
    "longitude": "77.56194190",
    "state_code": 38
  },
  {
    "id": 4853,
    "name": "West Bengal",
    "country_id": 101,
    "country_code": "IN",
    "latitude": "22.98675690",
    "longitude": "87.85497550",
    "state_code": 19
  }
]
