[{"id":158,"name":"Kakamega County","country_id":113,"country_code":"KE","latitude":"0.30789400","longitude":"34.77407930"},{"id":159,"name":"Kisii County","country_id":113,"country_code":"KE","latitude":"-0.67733400","longitude":"34.77960300"},{"id":160,"name":"Central Province","country_id":113,"country_code":"KE","latitude":null,"longitude":null},{"id":161,"name":"Busia County","country_id":113,"country_code":"KE","latitude":"0.43465060","longitude":"34.24215970"},{"id":162,"name":"North Eastern Province","country_id":113,"country_code":"KE","latitude":"7.78530510","longitude":"81.42789840"},{"id":163,"name":"Embu County","country_id":113,"country_code":"KE","latitude":"-0.65604770","longitude":"37.72376780"},{"id":164,"name":"Laikipia County","country_id":113,"country_code":"KE","latitude":"0.36060630","longitude":"36.78195050"},{"id":165,"name":"Nandi District","country_id":113,"country_code":"KE","latitude":"0.18358670","longitude":"35.12687810"},{"id":166,"name":"Lamu County","country_id":113,"country_code":"KE","latitude":"-2.23550580","longitude":"40.47200040"},{"id":167,"name":"Kirinyaga County","country_id":113,"country_code":"KE","latitude":"-0.65905650","longitude":"37.38272340"},{"id":168,"name":"Bungoma County","country_id":113,"country_code":"KE","latitude":"0.56952520","longitude":"34.55837660"},{"id":169,"name":"Uasin Gishu District","country_id":113,"country_code":"KE","latitude":"0.55276380","longitude":"35.30272260"},{"id":170,"name":"Isiolo County","country_id":113,"country_code":"KE","latitude":"0.35243520","longitude":"38.48499230"},{"id":171,"name":"Kisumu County","country_id":113,"country_code":"KE","latitude":"-0.09170160","longitude":"34.76795680"},{"id":172,"name":"Coast Province","country_id":113,"country_code":"KE","latitude":"39.13733050","longitude":"-76.72941440"},{"id":173,"name":"Kwale County","country_id":113,"country_code":"KE","latitude":"-4.18161150","longitude":"39.46056120"},{"id":174,"name":"Kilifi County","country_id":113,"country_code":"KE","latitude":"-3.51065080","longitude":"39.90932690"},{"id":175,"name":"Narok County","country_id":113,"country_code":"KE","latitude":"-1.10411100","longitude":"36.08934060"},{"id":176,"name":"Taita\u2013Taveta County","country_id":113,"country_code":"KE","latitude":"-3.31606870","longitude":"38.48499230"},{"id":177,"name":"Western Province","country_id":113,"country_code":"KE","latitude":null,"longitude":null},{"id":178,"name":"Muranga County","country_id":113,"country_code":"KE","latitude":"-0.78392810","longitude":"37.04003390"},{"id":179,"name":"Rift Valley Province","country_id":113,"country_code":"KE","latitude":"11.40987370","longitude":"41.28085770"},{"id":180,"name":"Nyeri County","country_id":113,"country_code":"KE","latitude":"-0.41969150","longitude":"37.04003390"},{"id":181,"name":"Baringo County","country_id":113,"country_code":"KE","latitude":"0.85549880","longitude":"36.08934060"},{"id":182,"name":"Wajir County","country_id":113,"country_code":"KE","latitude":"1.63604750","longitude":"40.30886260"},{"id":183,"name":"Trans-Nzoia District","country_id":113,"country_code":"KE","latitude":"1.05666670","longitude":"34.95066250"},{"id":184,"name":"Machakos County","country_id":113,"country_code":"KE","latitude":"-1.51768370","longitude":"37.26341460"},{"id":185,"name":"Tharaka Nithi County","country_id":113,"country_code":"KE","latitude":"-0.29648510","longitude":"37.72376780"},{"id":186,"name":"Siaya County","country_id":113,"country_code":"KE","latitude":"-0.06173280","longitude":"34.24215970"},{"id":187,"name":"Mandera County","country_id":113,"country_code":"KE","latitude":"3.57379910","longitude":"40.95868800"},{"id":188,"name":"Makueni County","country_id":113,"country_code":"KE","latitude":"-2.25587340","longitude":"37.89366630"},{"id":189,"name":"Eastern Province","country_id":113,"country_code":"KE","latitude":null,"longitude":null},{"id":190,"name":"Migori County","country_id":113,"country_code":"KE","latitude":"-0.93657020","longitude":"34.41982430"},{"id":191,"name":"Nairobi","country_id":113,"country_code":"KE","latitude":"-1.29206590","longitude":"36.82194620"},{"id":192,"name":"Nyandarua County","country_id":113,"country_code":"KE","latitude":"-0.18038550","longitude":"36.52296410"},{"id":193,"name":"Kericho County","country_id":113,"country_code":"KE","latitude":"-0.18279130","longitude":"35.47819260"},{"id":194,"name":"Marsabit County","country_id":113,"country_code":"KE","latitude":"2.44264030","longitude":"37.97845850"},{"id":195,"name":"Homa Bay County","country_id":113,"country_code":"KE","latitude":"-0.62206550","longitude":"34.33103640"},{"id":196,"name":"Garissa County","country_id":113,"country_code":"KE","latitude":"-0.45322930","longitude":"39.64609880"},{"id":197,"name":"Kajiado County","country_id":113,"country_code":"KE","latitude":"-2.09807510","longitude":"36.78195050"},{"id":198,"name":"Meru County","country_id":113,"country_code":"KE","latitude":"0.35571740","longitude":"37.80876930"},{"id":199,"name":"Kiambu County","country_id":113,"country_code":"KE","latitude":"-1.03137010","longitude":"36.86807910"},{"id":200,"name":"Mombasa County","country_id":113,"country_code":"KE","latitude":"-3.97682910","longitude":"39.71371810"},{"id":201,"name":"Elgeyo-Marakwet County","country_id":113,"country_code":"KE","latitude":"1.04982370","longitude":"35.47819260"},{"id":202,"name":"Vihiga District","country_id":113,"country_code":"KE","latitude":"0.07675530","longitude":"34.70776650"},{"id":203,"name":"Nakuru District","country_id":113,"country_code":"KE","latitude":"-0.30309880","longitude":"36.08002600"},{"id":204,"name":"Nyanza Province","country_id":113,"country_code":"KE","latitude":"-0.08898940","longitude":"34.77179120"},{"id":205,"name":"Tana River County","country_id":113,"country_code":"KE","latitude":"-1.65184680","longitude":"39.65181650"},{"id":206,"name":"Turkana County","country_id":113,"country_code":"KE","latitude":"3.31224770","longitude":"35.56578620"},{"id":207,"name":"Samburu County","country_id":113,"country_code":"KE","latitude":"1.21545060","longitude":"36.95410700"},{"id":208,"name":"West Pokot County","country_id":113,"country_code":"KE","latitude":"1.62100760","longitude":"35.39050460"},{"id":209,"name":"Nyamira District","country_id":113,"country_code":"KE","latitude":"-0.56694050","longitude":"34.93412340"},{"id":210,"name":"Bomet County","country_id":113,"country_code":"KE","latitude":"-0.80150090","longitude":"35.30272260"},{"id":211,"name":"Kitui County","country_id":113,"country_code":"KE","latitude":"-1.68328220","longitude":"38.31657250"}]