[{"id":1553,"name":"Plung\u0117 District Municipality","country_id":126,"country_code":"LT","latitude":"55.91078400","longitude":"21.84540690"},{"id":1554,"name":"\u0160iauliai District Municipality","country_id":126,"country_code":"LT","latitude":"55.97214560","longitude":"23.03323710"},{"id":1555,"name":"Jurbarkas District Municipality","country_id":126,"country_code":"LT","latitude":"55.07740700","longitude":"22.74195690"},{"id":1556,"name":"Kaunas County","country_id":126,"country_code":"LT","latitude":"54.98728630","longitude":"23.95257360"},{"id":1557,"name":"Ma\u017eeikiai District Municipality","country_id":126,"country_code":"LT","latitude":"56.30924390","longitude":"22.34146800"},{"id":1558,"name":"Panev\u0117\u017eys County","country_id":126,"country_code":"LT","latitude":"55.97480490","longitude":"25.07947670"},{"id":1559,"name":"Elektr\u0117nai municipality","country_id":126,"country_code":"LT","latitude":"54.76539340","longitude":"24.77405830"},{"id":1560,"name":"\u0160ven\u010dionys District Municipality","country_id":126,"country_code":"LT","latitude":"55.10280980","longitude":"26.00718550"},{"id":1561,"name":"Akmen\u0117 District Municipality","country_id":126,"country_code":"LT","latitude":"56.24550290","longitude":"22.74711690"},{"id":1562,"name":"Ignalina District Municipality","country_id":126,"country_code":"LT","latitude":"55.40903420","longitude":"26.32848930"},{"id":1563,"name":"Neringa Municipality","country_id":126,"country_code":"LT","latitude":"55.45724030","longitude":"21.08390050"},{"id":1564,"name":"Visaginas Municipality","country_id":126,"country_code":"LT","latitude":"55.59411800","longitude":"26.43079540"},{"id":1565,"name":"Kaunas District Municipality","country_id":126,"country_code":"LT","latitude":"54.99362360","longitude":"23.63249410"},{"id":1566,"name":"Bir\u017eai District Municipality","country_id":126,"country_code":"LT","latitude":"56.20177190","longitude":"24.75601180"},{"id":1567,"name":"Jonava District Municipality","country_id":126,"country_code":"LT","latitude":"55.07272420","longitude":"24.27933370"},{"id":1568,"name":"Radvili\u0161kis District Municipality","country_id":126,"country_code":"LT","latitude":"55.81083990","longitude":"23.54648700"},{"id":1569,"name":"Tel\u0161iai County","country_id":126,"country_code":"LT","latitude":"56.10266160","longitude":"22.11139150"},{"id":1570,"name":"Marijampol\u0117 County","country_id":126,"country_code":"LT","latitude":"54.78199710","longitude":"23.13413650"},{"id":1571,"name":"Kretinga District Municipality","country_id":126,"country_code":"LT","latitude":"55.88384200","longitude":"21.23509190"},{"id":1572,"name":"Taurag\u0117 District Municipality","country_id":126,"country_code":"LT","latitude":"55.25036600","longitude":"22.29095000"},{"id":1573,"name":"Taurag\u0117 County","country_id":126,"country_code":"LT","latitude":"55.30725860","longitude":"22.35729390"},{"id":1574,"name":"Alytus County","country_id":126,"country_code":"LT","latitude":"54.20002140","longitude":"24.15126340"},{"id":1575,"name":"Kazl\u0173 R\u016bda municipality","country_id":126,"country_code":"LT","latitude":"54.78075260","longitude":"23.48402430"},{"id":1576,"name":"\u0160akiai District Municipality","country_id":126,"country_code":"LT","latitude":"54.95267100","longitude":"23.04801990"},{"id":1577,"name":"\u0160al\u010dininkai District Municipality","country_id":126,"country_code":"LT","latitude":"54.30976700","longitude":"25.38756400"},{"id":1578,"name":"Prienai District Municipality","country_id":126,"country_code":"LT","latitude":"54.63835800","longitude":"23.94680090"},{"id":1579,"name":"Druskininkai municipality","country_id":126,"country_code":"LT","latitude":"53.99336850","longitude":"24.03424380"},{"id":1580,"name":"Kaunas City Municipality","country_id":126,"country_code":"LT","latitude":"54.91453260","longitude":"23.90535180"},{"id":1581,"name":"Joni\u0161kis District Municipality","country_id":126,"country_code":"LT","latitude":"56.23607300","longitude":"23.61365790"},{"id":1582,"name":"Mol\u0117tai District Municipality","country_id":126,"country_code":"LT","latitude":"55.22653090","longitude":"25.41800110"},{"id":1583,"name":"Kai\u0161iadorys District Municipality","country_id":126,"country_code":"LT","latitude":"54.85886690","longitude":"24.42779290"},{"id":1584,"name":"K\u0117dainiai District Municipality","country_id":126,"country_code":"LT","latitude":"55.35609470","longitude":"23.98326830"},{"id":1585,"name":"Kupi\u0161kis District Municipality","country_id":126,"country_code":"LT","latitude":"55.84287410","longitude":"25.02958160"},{"id":1586,"name":"\u0160iauliai County","country_id":126,"country_code":"LT","latitude":"55.99857510","longitude":"23.13800510"},{"id":1587,"name":"Raseiniai District Municipality","country_id":126,"country_code":"LT","latitude":"55.38194990","longitude":"23.11561290"},{"id":1588,"name":"Palanga City Municipality","country_id":126,"country_code":"LT","latitude":"55.92019800","longitude":"21.06776140"},{"id":1589,"name":"Panev\u0117\u017eys City Municipality","country_id":126,"country_code":"LT","latitude":"55.73479150","longitude":"24.35747740"},{"id":1590,"name":"Rietavas municipality","country_id":126,"country_code":"LT","latitude":"55.70217190","longitude":"21.99865640"},{"id":1591,"name":"Kalvarija municipality","country_id":126,"country_code":"LT","latitude":"54.37616740","longitude":"23.19203210"},{"id":1592,"name":"Vilnius District Municipality","country_id":126,"country_code":"LT","latitude":"54.77325780","longitude":"25.58671130"},{"id":1593,"name":"Trakai District Municipality","country_id":126,"country_code":"LT","latitude":"54.63791130","longitude":"24.93468940"},{"id":1594,"name":"\u0160irvintos District Municipality","country_id":126,"country_code":"LT","latitude":"55.04310200","longitude":"24.95698100"},{"id":1595,"name":"Pakruojis District Municipality","country_id":126,"country_code":"LT","latitude":"56.07326050","longitude":"23.93899060"},{"id":1596,"name":"Ukmerg\u0117 District Municipality","country_id":126,"country_code":"LT","latitude":"55.24526500","longitude":"24.77607490"},{"id":1597,"name":"Klaipeda City Municipality","country_id":126,"country_code":"LT","latitude":"55.70329480","longitude":"21.14427950"},{"id":1598,"name":"Utena District Municipality","country_id":126,"country_code":"LT","latitude":"55.50846140","longitude":"25.68326420"},{"id":1599,"name":"Alytus District Municipality","country_id":126,"country_code":"LT","latitude":"54.32974960","longitude":"24.19609310"},{"id":1600,"name":"Klaip\u0117da County","country_id":126,"country_code":"LT","latitude":"55.65197440","longitude":"21.37439560"},{"id":1601,"name":"Vilnius County","country_id":126,"country_code":"LT","latitude":"54.80865020","longitude":"25.21821390"},{"id":1602,"name":"Var\u0117na District Municipality","country_id":126,"country_code":"LT","latitude":"54.22033300","longitude":"24.57899700"},{"id":1603,"name":"Bir\u0161tonas Municipality","country_id":126,"country_code":"LT","latitude":"54.56696640","longitude":"24.00930980"},{"id":1604,"name":"Klaip\u0117da District Municipality","country_id":126,"country_code":"LT","latitude":"55.68416150","longitude":"21.44164640"},{"id":1605,"name":"Alytus City Municipality","country_id":126,"country_code":"LT","latitude":"54.39629380","longitude":"24.04587610"},{"id":1606,"name":"Vilnius City Municipality","country_id":126,"country_code":"LT","latitude":"54.67107610","longitude":"25.28787210"},{"id":1607,"name":"\u0160ilut\u0117 District Municipality","country_id":126,"country_code":"LT","latitude":"55.35041400","longitude":"21.46598590"},{"id":1608,"name":"Tel\u0161iai District Municipality","country_id":126,"country_code":"LT","latitude":"55.91752150","longitude":"22.34518400"},{"id":1609,"name":"\u0160iauliai City Municipality","country_id":126,"country_code":"LT","latitude":"55.93490850","longitude":"23.31368230"},{"id":1610,"name":"Marijampol\u0117 Municipality","country_id":126,"country_code":"LT","latitude":"54.57110940","longitude":"23.48593710"},{"id":1611,"name":"Lazdijai District Municipality","country_id":126,"country_code":"LT","latitude":"54.23432670","longitude":"23.51565050"},{"id":1612,"name":"Pag\u0117giai municipality","country_id":126,"country_code":"LT","latitude":"55.17213200","longitude":"21.96836140"},{"id":1613,"name":"\u0160ilal\u0117 District Municipality","country_id":126,"country_code":"LT","latitude":"55.49268000","longitude":"22.18455590"},{"id":1614,"name":"Panev\u0117\u017eys District Municipality","country_id":126,"country_code":"LT","latitude":"55.61667280","longitude":"24.31422830"},{"id":1615,"name":"Roki\u0161kis District Municipality","country_id":126,"country_code":"LT","latitude":"55.95550390","longitude":"25.58592490"},{"id":1616,"name":"Pasvalys District Municipality","country_id":126,"country_code":"LT","latitude":"56.06046190","longitude":"24.39629100"},{"id":1617,"name":"Skuodas District Municipality","country_id":126,"country_code":"LT","latitude":"56.27021690","longitude":"21.52143310"},{"id":1618,"name":"Kelm\u0117 District Municipality","country_id":126,"country_code":"LT","latitude":"55.62663520","longitude":"22.87817200"},{"id":1619,"name":"Zarasai District Municipality","country_id":126,"country_code":"LT","latitude":"55.73096090","longitude":"26.24529500"},{"id":1620,"name":"Vilkavi\u0161kis District Municipality","country_id":126,"country_code":"LT","latitude":"54.65194500","longitude":"23.03515500"},{"id":1621,"name":"Utena County","country_id":126,"country_code":"LT","latitude":"55.53189690","longitude":"25.79046990"}]