[{"id":248,"name":"Tombouctou Region","country_id":134,"country_code":"ML","latitude":"21.05267060","longitude":"-3.74350900"},{"id":249,"name":"S\u00e9gou Region","country_id":134,"country_code":"ML","latitude":"13.83944560","longitude":"-6.06791940"},{"id":250,"name":"Koulikoro Region","country_id":134,"country_code":"ML","latitude":"13.80180740","longitude":"-7.43813550"},{"id":251,"name":"M\u00e9naka Region","country_id":134,"country_code":"ML","latitude":"15.91564210","longitude":"2.39617400"},{"id":252,"name":"Kayes Region","country_id":134,"country_code":"ML","latitude":"14.08183080","longitude":"-9.90181310"},{"id":253,"name":"Bamako","country_id":134,"country_code":"ML","latitude":"12.63923160","longitude":"-8.00288920"},{"id":254,"name":"Sikasso Region","country_id":134,"country_code":"ML","latitude":"10.89051860","longitude":"-7.43813550"},{"id":255,"name":"Mopti Region","country_id":134,"country_code":"ML","latitude":"14.63380390","longitude":"-3.41955270"},{"id":256,"name":"Taoud\u00e9nit Region","country_id":134,"country_code":"ML","latitude":"22.67641320","longitude":"-3.97891430"},{"id":257,"name":"Kidal Region","country_id":134,"country_code":"ML","latitude":"18.79868320","longitude":"1.83183340"},{"id":258,"name":"Gao Region","country_id":134,"country_code":"ML","latitude":"16.90663320","longitude":"1.52086240"}]