[{"id":940,"name":"Chontales Department","country_id":159,"country_code":"NI","latitude":"11.93947170","longitude":"-85.18940450"},{"id":941,"name":"Managua Department","country_id":159,"country_code":"NI","latitude":"12.13916990","longitude":"-86.33767610"},{"id":942,"name":"Rivas Department","country_id":159,"country_code":"NI","latitude":"11.40234900","longitude":"-85.68457800"},{"id":943,"name":"Granada Department","country_id":159,"country_code":"NI","latitude":"11.93440730","longitude":"-85.95600050"},{"id":944,"name":"Le\u00f3n Department","country_id":159,"country_code":"NI","latitude":"12.50920370","longitude":"-86.66110830"},{"id":945,"name":"Estel\u00ed Department","country_id":159,"country_code":"NI","latitude":"13.08511390","longitude":"-86.36301970"},{"id":946,"name":"Boaco Department","country_id":159,"country_code":"NI","latitude":"12.46928400","longitude":"-85.66146820"},{"id":947,"name":"Matagalpa Department","country_id":159,"country_code":"NI","latitude":"12.94984360","longitude":"-85.43755740"},{"id":948,"name":"Madriz Department","country_id":159,"country_code":"NI","latitude":"13.47260050","longitude":"-86.45920910"},{"id":949,"name":"R\u00edo San Juan Department","country_id":159,"country_code":"NI","latitude":"11.47816100","longitude":"-84.77333250"},{"id":950,"name":"Carazo Department","country_id":159,"country_code":"NI","latitude":"11.72747290","longitude":"-86.21584970"},{"id":951,"name":"North Caribbean Coast Autonomous Region","country_id":159,"country_code":"NI","latitude":"13.83944560","longitude":"-83.93208060"},{"id":952,"name":"South Caribbean Coast Autonomous Region","country_id":159,"country_code":"NI","latitude":"12.19185020","longitude":"-84.10128610"},{"id":953,"name":"Masaya Department","country_id":159,"country_code":"NI","latitude":"11.97593280","longitude":"-86.07334980"},{"id":954,"name":"Chinandega Department","country_id":159,"country_code":"NI","latitude":"12.88200620","longitude":"-87.14228950"},{"id":955,"name":"Jinotega Department","country_id":159,"country_code":"NI","latitude":"13.08839070","longitude":"-85.99939970"}]