[{"id":1622,"name":"Opole Voivodeship","country_id":176,"country_code":"PL","latitude":"50.80037610","longitude":"17.93798900"},{"id":1623,"name":"Silesian Voivodeship","country_id":176,"country_code":"PL","latitude":"50.57165950","longitude":"19.32197680"},{"id":1624,"name":"Pomeranian Voivodeship","country_id":176,"country_code":"PL","latitude":"54.29442520","longitude":"18.15311640"},{"id":1625,"name":"Kuyavian-Pomeranian Voivodeship","country_id":176,"country_code":"PL","latitude":"53.16483630","longitude":"18.48342240"},{"id":1626,"name":"Podkarpackie Voivodeship","country_id":176,"country_code":"PL","latitude":"50.05747490","longitude":"22.08956910"},{"id":1628,"name":"Warmian-Masurian Voivodeship","country_id":176,"country_code":"PL","latitude":"53.86711170","longitude":"20.70278610"},{"id":1629,"name":"Lower Silesian Voivodeship","country_id":176,"country_code":"PL","latitude":"51.13398610","longitude":"16.88419610"},{"id":1630,"name":"\u015awi\u0119tokrzyskie Voivodeship","country_id":176,"country_code":"PL","latitude":"50.62610410","longitude":"20.94062790"},{"id":1631,"name":"Lubusz Voivodeship","country_id":176,"country_code":"PL","latitude":"52.22746120","longitude":"15.25591030"},{"id":1632,"name":"Podlaskie Voivodeship","country_id":176,"country_code":"PL","latitude":"53.06971590","longitude":"22.96746390"},{"id":1633,"name":"West Pomeranian Voivodeship","country_id":176,"country_code":"PL","latitude":"53.46578910","longitude":"15.18225810"},{"id":1634,"name":"Greater Poland Voivodeship","country_id":176,"country_code":"PL","latitude":"52.27998600","longitude":"17.35229390"},{"id":1635,"name":"Lesser Poland Voivodeship","country_id":176,"country_code":"PL","latitude":"49.72253060","longitude":"20.25033580"},{"id":1636,"name":"\u0141\u00f3d\u017a Voivodeship","country_id":176,"country_code":"PL","latitude":"51.46347710","longitude":"19.17269740"},{"id":1637,"name":"Masovian Voivodeship","country_id":176,"country_code":"PL","latitude":"51.89271820","longitude":"21.00216790"},{"id":1638,"name":"Lublin Voivodeship","country_id":176,"country_code":"PL","latitude":"51.24935190","longitude":"23.10113920"}]