[{"id":4352,"name":"Bansk\u00e1 Bystrica Region","country_id":200,"country_code":"SK","latitude":"48.53124990","longitude":"19.38287400"},{"id":4353,"name":"Ko\u0161ice Region","country_id":200,"country_code":"SK","latitude":"48.63757370","longitude":"21.08342250"},{"id":4354,"name":"Pre\u0161ov Region","country_id":200,"country_code":"SK","latitude":"49.17167730","longitude":"21.37420010"},{"id":4355,"name":"Trnava Region","country_id":200,"country_code":"SK","latitude":"48.39438980","longitude":"17.72162050"},{"id":4356,"name":"Bratislava Region","country_id":200,"country_code":"SK","latitude":"48.31183040","longitude":"17.19732990"},{"id":4357,"name":"Nitra Region","country_id":200,"country_code":"SK","latitude":"48.01437650","longitude":"18.54165040"},{"id":4358,"name":"Tren\u010d\u00edn Region","country_id":200,"country_code":"SK","latitude":"48.80867580","longitude":"18.23240260"},{"id":4359,"name":"\u017dilina Region","country_id":200,"country_code":"SK","latitude":"49.20314350","longitude":"19.36457330"}]