[{"id":1146,"name":"Burgos Province","country_id":207,"country_code":"ES","latitude":"42.33807580","longitude":"-3.58126920"},{"id":1147,"name":"Salamanca Province","country_id":207,"country_code":"ES","latitude":"40.95152630","longitude":"-6.23759470"},{"id":1157,"name":"Palencia Province","country_id":207,"country_code":"ES","latitude":"42.00968320","longitude":"-4.52879490"},{"id":1158,"name":"Madrid","country_id":207,"country_code":"ES","latitude":"40.41675150","longitude":"-3.70383220"},{"id":1159,"name":"Melilla","country_id":207,"country_code":"ES","latitude":"35.29227750","longitude":"-2.93809730"},{"id":1160,"name":"Asturias","country_id":207,"country_code":"ES","latitude":"43.36139530","longitude":"-5.85932670"},{"id":1161,"name":"Zamora Province","country_id":207,"country_code":"ES","latitude":"41.60957440","longitude":"-5.89871390"},{"id":1167,"name":"Galicia","country_id":207,"country_code":"ES","latitude":"42.57505540","longitude":"-8.13385580"},{"id":1170,"name":"Cantabria","country_id":207,"country_code":"ES","latitude":"43.18283960","longitude":"-3.98784270"},{"id":1171,"name":"La Rioja","country_id":207,"country_code":"ES","latitude":"42.28707330","longitude":"-2.53960300"},{"id":1174,"name":"Balearic Islands","country_id":207,"country_code":"ES","latitude":"39.35877590","longitude":"2.73563280"},{"id":1175,"name":"Valencia","country_id":207,"country_code":"ES","latitude":"39.48401080","longitude":"-0.75328090"},{"id":1176,"name":"Murcia","country_id":207,"country_code":"ES","latitude":"38.13981410","longitude":"-1.36621600"},{"id":1177,"name":"Aragon","country_id":207,"country_code":"ES","latitude":"41.59762750","longitude":"-0.90566230"},{"id":1183,"name":"Valladolid Province","country_id":207,"country_code":"ES","latitude":"41.65173750","longitude":"-4.72449500"},{"id":1184,"name":"Castile and Le\u00f3n","country_id":207,"country_code":"ES","latitude":"41.83568210","longitude":"-4.39763570"},{"id":1185,"name":"Canary Islands","country_id":207,"country_code":"ES","latitude":"28.29156370","longitude":"-16.62913040"},{"id":1189,"name":"\u00c1vila","country_id":207,"country_code":"ES","latitude":"40.69345110","longitude":"-4.89356270"},{"id":1190,"name":"Extremadura","country_id":207,"country_code":"ES","latitude":"39.49373920","longitude":"-6.06791940"},{"id":1191,"name":"Basque Country","country_id":207,"country_code":"ES","latitude":"42.98962480","longitude":"-2.61892730"},{"id":1192,"name":"Segovia Province","country_id":207,"country_code":"ES","latitude":"40.94292960","longitude":"-4.10889420"},{"id":1193,"name":"Andalusia","country_id":207,"country_code":"ES","latitude":"37.54427060","longitude":"-4.72775280"},{"id":1200,"name":"L\u00e9on","country_id":207,"country_code":"ES","latitude":"42.59870410","longitude":"-5.56708390"},{"id":1203,"name":"Catalonia","country_id":207,"country_code":"ES","latitude":"41.59115890","longitude":"1.52086240"},{"id":1204,"name":"Navarra","country_id":207,"country_code":"ES","latitude":"42.69539090","longitude":"-1.67606910"},{"id":1205,"name":"Castilla La Mancha","country_id":207,"country_code":"ES","latitude":"39.27956070","longitude":"-3.09770200"},{"id":1206,"name":"Ceuta","country_id":207,"country_code":"ES","latitude":"35.88938740","longitude":"-5.32134550"},{"id":1208,"name":"Soria Province","country_id":207,"country_code":"ES","latitude":"41.76654640","longitude":"-2.47903060"}]