[{"id":1463,"name":"Shinyanga Region","country_id":218,"country_code":"TZ","latitude":"-3.68099610","longitude":"33.42714030"},{"id":1464,"name":"Simiyu Region","country_id":218,"country_code":"TZ","latitude":"-2.83087380","longitude":"34.15319470"},{"id":1465,"name":"Kagera Region","country_id":218,"country_code":"TZ","latitude":"-1.30011150","longitude":"31.26263660"},{"id":1466,"name":"Dodoma Region","country_id":218,"country_code":"TZ","latitude":"-6.57382280","longitude":"36.26308460"},{"id":1467,"name":"Kilimanjaro Region","country_id":218,"country_code":"TZ","latitude":"-4.13369270","longitude":"37.80876930"},{"id":1468,"name":"Mara Region","country_id":218,"country_code":"TZ","latitude":"-1.77535380","longitude":"34.15319470"},{"id":1469,"name":"Tabora Region","country_id":218,"country_code":"TZ","latitude":"-5.03421380","longitude":"32.80844960"},{"id":1470,"name":"Morogoro Region","country_id":218,"country_code":"TZ","latitude":"-8.81371730","longitude":"36.95410700"},{"id":1471,"name":"Zanzibar Central\/South Region","country_id":218,"country_code":"TZ","latitude":"-6.26428510","longitude":"39.44502810"},{"id":1472,"name":"South Pemba Region","country_id":218,"country_code":"TZ","latitude":"-5.31469610","longitude":"39.75495110"},{"id":1473,"name":"Zanzibar North Region","country_id":218,"country_code":"TZ","latitude":"-5.93950930","longitude":"39.27910110"},{"id":1474,"name":"Singida Region","country_id":218,"country_code":"TZ","latitude":"-6.74533520","longitude":"34.15319470"},{"id":1475,"name":"Zanzibar Urban\/West Region","country_id":218,"country_code":"TZ","latitude":"-6.22981360","longitude":"39.25832930"},{"id":1476,"name":"Mtwara Region","country_id":218,"country_code":"TZ","latitude":"-10.33984550","longitude":"40.16574660"},{"id":1477,"name":"Rukwa Region","country_id":218,"country_code":"TZ","latitude":"-8.01094440","longitude":"31.44561790"},{"id":1478,"name":"Kigoma Region","country_id":218,"country_code":"TZ","latitude":"-4.88240920","longitude":"29.66150550"},{"id":1479,"name":"Mwanza Region","country_id":218,"country_code":"TZ","latitude":"-2.46711970","longitude":"32.89868120"},{"id":1480,"name":"Njombe Region","country_id":218,"country_code":"TZ","latitude":"-9.24226320","longitude":"35.12687810"},{"id":1481,"name":"Geita Region","country_id":218,"country_code":"TZ","latitude":"-2.82422570","longitude":"32.26538870"},{"id":1482,"name":"Katavi Region","country_id":218,"country_code":"TZ","latitude":"-6.36771250","longitude":"31.26263660"},{"id":1483,"name":"Lindi Region","country_id":218,"country_code":"TZ","latitude":"-9.23433940","longitude":"38.31657250"},{"id":1484,"name":"Manyara Region","country_id":218,"country_code":"TZ","latitude":"-4.31500580","longitude":"36.95410700"},{"id":1485,"name":"Pwani Region","country_id":218,"country_code":"TZ","latitude":"-7.32377140","longitude":"38.82054540"},{"id":1486,"name":"Ruvuma Region","country_id":218,"country_code":"TZ","latitude":"-10.68787170","longitude":"36.26308460"},{"id":1487,"name":"Tanga Region","country_id":218,"country_code":"TZ","latitude":"-5.30497890","longitude":"38.31657250"},{"id":1488,"name":"North Pemba Region","country_id":218,"country_code":"TZ","latitude":"-5.03193520","longitude":"39.77555710"},{"id":1489,"name":"Iringa Region","country_id":218,"country_code":"TZ","latitude":"-7.78874420","longitude":"35.56578620"},{"id":1490,"name":"Dar es Salaam Region","country_id":218,"country_code":"TZ","latitude":"-6.79235400","longitude":"39.20832840"},{"id":1491,"name":"Arusha Region","country_id":218,"country_code":"TZ","latitude":"-3.38692540","longitude":"36.68299270"}]