[{"id":3203,"name":"Flores Department","country_id":235,"country_code":"UY","latitude":"-33.57337530","longitude":"-56.89450280"},{"id":3204,"name":"San Jos\u00e9 Department","country_id":235,"country_code":"UY","latitude":"37.34929680","longitude":"-121.90560490"},{"id":3205,"name":"Artigas Department","country_id":235,"country_code":"UY","latitude":"-30.61751120","longitude":"-56.95945590"},{"id":3206,"name":"Maldonado Department","country_id":235,"country_code":"UY","latitude":"-34.55979320","longitude":"-54.86285520"},{"id":3207,"name":"Rivera Department","country_id":235,"country_code":"UY","latitude":"-31.48174210","longitude":"-55.24357590"},{"id":3208,"name":"Colonia Department","country_id":235,"country_code":"UY","latitude":"-34.12946780","longitude":"-57.66051840"},{"id":3209,"name":"Durazno Department","country_id":235,"country_code":"UY","latitude":"-33.02324540","longitude":"-56.02846440"},{"id":3210,"name":"R\u00edo Negro Department","country_id":235,"country_code":"UY","latitude":"-32.76763560","longitude":"-57.42952070"},{"id":3211,"name":"Cerro Largo Department","country_id":235,"country_code":"UY","latitude":"-32.44110320","longitude":"-54.35217530"},{"id":3212,"name":"Paysand\u00fa Department","country_id":235,"country_code":"UY","latitude":"-32.06673660","longitude":"-57.33647890"},{"id":3213,"name":"Canelones Department","country_id":235,"country_code":"UY","latitude":"-34.54087170","longitude":"-55.93076000"},{"id":3214,"name":"Treinta y Tres Department","country_id":235,"country_code":"UY","latitude":"-33.06850860","longitude":"-54.28586270"},{"id":3215,"name":"Lavalleja Department","country_id":235,"country_code":"UY","latitude":"-33.92261750","longitude":"-54.97657940"},{"id":3216,"name":"Rocha Department","country_id":235,"country_code":"UY","latitude":"-33.96900810","longitude":"-54.02148500"},{"id":3217,"name":"Florida Department","country_id":235,"country_code":"UY","latitude":"28.03594950","longitude":"-82.45792890"},{"id":3218,"name":"Montevideo Department","country_id":235,"country_code":"UY","latitude":"-34.81815870","longitude":"-56.21382560"},{"id":3219,"name":"Soriano Department","country_id":235,"country_code":"UY","latitude":"-33.51027920","longitude":"-57.74981030"},{"id":3220,"name":"Salto Department","country_id":235,"country_code":"UY","latitude":"-31.38802800","longitude":"-57.96124550"},{"id":3221,"name":"Tacuaremb\u00f3 Department","country_id":235,"country_code":"UY","latitude":"-31.72068370","longitude":"-55.98598870"}]