[{"id":744,"name":"Kyrenia District","country_id":57,"country_code":"CY","latitude":"35.29919400","longitude":"33.23632460"},{"id":745,"name":"Nicosia District","country_id":57,"country_code":"CY","latitude":"35.18556590","longitude":"33.38227640"},{"id":746,"name":"Paphos District","country_id":57,"country_code":"CY","latitude":"34.91645940","longitude":"32.49200880"},{"id":747,"name":"Larnaca District","country_id":57,"country_code":"CY","latitude":"34.85072060","longitude":"33.48319060"},{"id":748,"name":"Limassol District","country_id":57,"country_code":"CY","latitude":"34.70713010","longitude":"33.02261740"},{"id":749,"name":"Famagusta District","country_id":57,"country_code":"CY","latitude":"35.28570230","longitude":"33.84112880"}]