[{"id":4127,"name":"San Vicente Department","country_id":66,"country_code":"SV","latitude":"13.58685610","longitude":"-88.74939980"},{"id":4128,"name":"Santa Ana Department","country_id":66,"country_code":"SV","latitude":"14.14611210","longitude":"-89.51200840"},{"id":4129,"name":"Usulut\u00e1n Department","country_id":66,"country_code":"SV","latitude":"13.44706340","longitude":"-88.55653100"},{"id":4130,"name":"Moraz\u00e1n Department","country_id":66,"country_code":"SV","latitude":"13.76820000","longitude":"-88.12913870"},{"id":4131,"name":"Chalatenango Department","country_id":66,"country_code":"SV","latitude":"14.19166480","longitude":"-89.17059980"},{"id":4132,"name":"Caba\u00f1as Department","country_id":66,"country_code":"SV","latitude":"13.86482880","longitude":"-88.74939980"},{"id":4133,"name":"San Salvador Department","country_id":66,"country_code":"SV","latitude":"13.77399970","longitude":"-89.20867730"},{"id":4134,"name":"La Libertad Department","country_id":66,"country_code":"SV","latitude":"13.68176610","longitude":"-89.36062980"},{"id":4135,"name":"San Miguel Department","country_id":66,"country_code":"SV","latitude":"13.44510410","longitude":"-88.24611830"},{"id":4136,"name":"La Paz Department","country_id":66,"country_code":"SV","latitude":null,"longitude":null},{"id":4137,"name":"Cuscatl\u00e1n Department","country_id":66,"country_code":"SV","latitude":"13.86619570","longitude":"-89.05615320"},{"id":4138,"name":"La Uni\u00f3n Department","country_id":66,"country_code":"SV","latitude":"13.48864430","longitude":"-87.89424510"},{"id":4139,"name":"Ahuachap\u00e1n Department","country_id":66,"country_code":"SV","latitude":"13.82161480","longitude":"-89.92532330"},{"id":4140,"name":"Sonsonate Department","country_id":66,"country_code":"SV","latitude":"13.68235800","longitude":"-89.66281110"}]