[{"id":3438,"name":"R\u00edo Muni","country_id":67,"country_code":"GQ","latitude":"1.46106060","longitude":"9.67868940"},{"id":3439,"name":"Ki\u00e9-Ntem Province","country_id":67,"country_code":"GQ","latitude":"2.02809300","longitude":"11.07117580"},{"id":3440,"name":"Wele-Nzas Province","country_id":67,"country_code":"GQ","latitude":"1.41661620","longitude":"11.07117580"},{"id":3441,"name":"Litoral Province","country_id":67,"country_code":"GQ","latitude":"1.57502440","longitude":"9.81249350"},{"id":3442,"name":"Insular Region","country_id":67,"country_code":"GQ","latitude":"37.09024000","longitude":"-95.71289100"},{"id":3443,"name":"Bioko Sur Province","country_id":67,"country_code":"GQ","latitude":"3.42097850","longitude":"8.61606740"},{"id":3444,"name":"Annob\u00f3n Province","country_id":67,"country_code":"GQ","latitude":"-1.42687820","longitude":"5.63528010"},{"id":3445,"name":"Centro Sur Province","country_id":67,"country_code":"GQ","latitude":"1.34360840","longitude":"10.43965600"},{"id":3446,"name":"Bioko Norte Province","country_id":67,"country_code":"GQ","latitude":"3.65950720","longitude":"8.79218360"}]