[{"id":1492,"name":"Eastern Finland Province","country_id":74,"country_code":"FI","latitude":"62.56338910","longitude":"28.50240420"},{"id":1493,"name":"Tavastia Proper","country_id":74,"country_code":"FI","latitude":"60.90701500","longitude":"24.30054980"},{"id":1494,"name":"Central Ostrobothnia","country_id":74,"country_code":"FI","latitude":"63.56217350","longitude":"24.00136310"},{"id":1495,"name":"Southern Savonia","country_id":74,"country_code":"FI","latitude":"61.69451480","longitude":"27.80050150"},{"id":1496,"name":"Kainuu","country_id":74,"country_code":"FI","latitude":"64.37365640","longitude":"28.74374750"},{"id":1497,"name":"South Karelia","country_id":74,"country_code":"FI","latitude":"61.11819490","longitude":"28.10243720"},{"id":1498,"name":"Southern Ostrobothnia","country_id":74,"country_code":"FI","latitude":"62.94330990","longitude":"23.52852670"},{"id":1499,"name":"Oulu Province","country_id":74,"country_code":"FI","latitude":"65.01207480","longitude":"25.46504960"},{"id":1500,"name":"Lapland","country_id":74,"country_code":"FI","latitude":"67.92223040","longitude":"26.50464380"},{"id":1501,"name":"Satakunta","country_id":74,"country_code":"FI","latitude":"61.59327580","longitude":"22.14830810"},{"id":1502,"name":"P\u00e4ij\u00e4nne Tavastia","country_id":74,"country_code":"FI","latitude":"61.32300410","longitude":"25.73224960"},{"id":1503,"name":"Northern Savonia","country_id":74,"country_code":"FI","latitude":"63.08448000","longitude":"27.02535040"},{"id":1504,"name":"North Karelia","country_id":74,"country_code":"FI","latitude":"62.80620780","longitude":"30.15538870"},{"id":1505,"name":"Northern Ostrobothnia","country_id":74,"country_code":"FI","latitude":"65.27949300","longitude":"26.28904170"},{"id":1506,"name":"Pirkanmaa","country_id":74,"country_code":"FI","latitude":"61.69869180","longitude":"23.78955980"},{"id":1507,"name":"Finland Proper","country_id":74,"country_code":"FI","latitude":"60.36279140","longitude":"22.44393690"},{"id":1508,"name":"Ostrobothnia","country_id":74,"country_code":"FI","latitude":"63.11817570","longitude":"21.90610620"},{"id":1509,"name":"\u00c5land Islands","country_id":74,"country_code":"FI","latitude":"60.17852470","longitude":"19.91561050"},{"id":1510,"name":"Uusimaa","country_id":74,"country_code":"FI","latitude":"60.21872000","longitude":"25.27162100"},{"id":1511,"name":"Central Finland","country_id":74,"country_code":"FI","latitude":"62.56667430","longitude":"25.55494450"},{"id":1512,"name":"Kymenlaakso","country_id":74,"country_code":"FI","latitude":"60.78051200","longitude":"26.88293360"}]