[{"id":48,"name":"Ashanti Region","country_id":83,"country_code":"GH","latitude":"6.74704360","longitude":"-1.52086240"},{"id":49,"name":"Western Region","country_id":83,"country_code":"GH","latitude":null,"longitude":null},{"id":50,"name":"Eastern Region","country_id":83,"country_code":"GH","latitude":null,"longitude":null},{"id":51,"name":"Northern Region","country_id":83,"country_code":"GH","latitude":null,"longitude":null},{"id":52,"name":"Central Region","country_id":83,"country_code":"GH","latitude":null,"longitude":null},{"id":53,"name":"Brong-Ahafo Region","country_id":83,"country_code":"GH","latitude":"7.95592470","longitude":"-1.67606910"},{"id":54,"name":"Greater Accra Region","country_id":83,"country_code":"GH","latitude":"5.81428360","longitude":"0.07467670"},{"id":55,"name":"Upper East Region","country_id":83,"country_code":"GH","latitude":"10.70824990","longitude":"-0.98206680"},{"id":56,"name":"Volta Region","country_id":83,"country_code":"GH","latitude":"6.57813730","longitude":"0.45023680"},{"id":57,"name":"Upper West Region","country_id":83,"country_code":"GH","latitude":"10.25297570","longitude":"-2.14502450"}]