[{"id":3430,"name":"Southern Peninsula Region","country_id":100,"country_code":"IS","latitude":"63.91548030","longitude":"-22.36496670"},{"id":3431,"name":"Capital Region","country_id":100,"country_code":"IS","latitude":"38.56569570","longitude":"-92.18169490"},{"id":3432,"name":"Westfjords","country_id":100,"country_code":"IS","latitude":"65.91961500","longitude":"-21.88117640"},{"id":3433,"name":"Eastern Region","country_id":100,"country_code":"IS","latitude":null,"longitude":null},{"id":3434,"name":"Southern Region","country_id":100,"country_code":"IS","latitude":null,"longitude":null},{"id":3435,"name":"Northwestern Region","country_id":100,"country_code":"IS","latitude":"41.91339320","longitude":"-73.04716880"},{"id":3436,"name":"Western Region","country_id":100,"country_code":"IS","latitude":null,"longitude":null},{"id":3437,"name":"Northeastern Region","country_id":100,"country_code":"IS","latitude":"43.29942850","longitude":"-74.21793260"}]