[{"id":2849,"name":"Riyadh Region","country_id":194,"country_code":"SA","latitude":"22.75543850","longitude":"46.20915470"},{"id":2850,"name":"Makkah Region","country_id":194,"country_code":"SA","latitude":"21.52355840","longitude":"41.91964710"},{"id":2851,"name":"Al Madinah Region","country_id":194,"country_code":"SA","latitude":"24.84039770","longitude":"39.32062410"},{"id":2852,"name":"Tabuk Region","country_id":194,"country_code":"SA","latitude":"28.24533350","longitude":"37.63866220"},{"id":2853,"name":"'Asir Region","country_id":194,"country_code":"SA","latitude":"19.09690620","longitude":"42.86378750"},{"id":2854,"name":"Northern Borders Region","country_id":194,"country_code":"SA","latitude":"30.07991620","longitude":"42.86378750"},{"id":2855,"name":"Ha'il Region","country_id":194,"country_code":"SA","latitude":"27.70761430","longitude":"41.91964710"},{"id":2856,"name":"Eastern Province","country_id":194,"country_code":"SA","latitude":null,"longitude":null},{"id":2857,"name":"Al Jawf Region","country_id":194,"country_code":"SA","latitude":"29.88735600","longitude":"39.32062410"},{"id":2858,"name":"Jizan Region","country_id":194,"country_code":"SA","latitude":"17.17381760","longitude":"42.70761070"},{"id":2859,"name":"Al Bahah Region","country_id":194,"country_code":"SA","latitude":"20.27227390","longitude":"41.44125100"},{"id":2860,"name":"Najran Region","country_id":194,"country_code":"SA","latitude":"18.35146640","longitude":"45.60071080"},{"id":2861,"name":"Al-Qassim Region","country_id":194,"country_code":"SA","latitude":"26.20782600","longitude":"43.48373800"}]