[{"id":1533,"name":"G\u00e4vleborg County","country_id":213,"country_code":"SE","latitude":"61.30119930","longitude":"16.15342140"},{"id":1534,"name":"Dalarna County","country_id":213,"country_code":"SE","latitude":"61.09170120","longitude":"14.66636530"},{"id":1535,"name":"V\u00e4rmland County","country_id":213,"country_code":"SE","latitude":"59.72940650","longitude":"13.23540240"},{"id":1536,"name":"\u00d6sterg\u00f6tland County","country_id":213,"country_code":"SE","latitude":"58.34536350","longitude":"15.51978440"},{"id":1537,"name":"Blekinge","country_id":213,"country_code":"SE","latitude":"56.27838370","longitude":"15.01800580"},{"id":1538,"name":"Norrbotten County","country_id":213,"country_code":"SE","latitude":"66.83092160","longitude":"20.39919660"},{"id":1539,"name":"\u00d6rebro County","country_id":213,"country_code":"SE","latitude":"59.53503600","longitude":"15.00657310"},{"id":1540,"name":"S\u00f6dermanland County","country_id":213,"country_code":"SE","latitude":"59.03363490","longitude":"16.75188990"},{"id":1541,"name":"Sk\u00e5ne County","country_id":213,"country_code":"SE","latitude":"55.99025720","longitude":"13.59576920"},{"id":1542,"name":"Kronoberg County","country_id":213,"country_code":"SE","latitude":"56.71834030","longitude":"14.41146730"},{"id":1543,"name":"V\u00e4sterbotten County","country_id":213,"country_code":"SE","latitude":"65.33373110","longitude":"16.51616940"},{"id":1544,"name":"Kalmar County","country_id":213,"country_code":"SE","latitude":"57.23501560","longitude":"16.18493490"},{"id":1545,"name":"Uppsala County","country_id":213,"country_code":"SE","latitude":"60.00922620","longitude":"17.27145880"},{"id":1546,"name":"Gotland County","country_id":213,"country_code":"SE","latitude":"57.46841210","longitude":"18.48674470"},{"id":1547,"name":"V\u00e4stra G\u00f6taland County","country_id":213,"country_code":"SE","latitude":"58.25279260","longitude":"13.05964250"},{"id":1548,"name":"Halland County","country_id":213,"country_code":"SE","latitude":"56.89668050","longitude":"12.80339930"},{"id":1549,"name":"V\u00e4stmanland County","country_id":213,"country_code":"SE","latitude":"59.67138790","longitude":"16.21589530"},{"id":1550,"name":"J\u00f6nk\u00f6ping County","country_id":213,"country_code":"SE","latitude":"57.37084340","longitude":"14.34391740"},{"id":1551,"name":"Stockholm County","country_id":213,"country_code":"SE","latitude":"59.60249580","longitude":"18.13843830"},{"id":1552,"name":"V\u00e4sternorrland County","country_id":213,"country_code":"SE","latitude":"63.42764730","longitude":"17.72924440"}]