[{"id":3401,"name":"Tainan County","country_id":216,"country_code":"TW","latitude":"22.99972810","longitude":"120.22702770"},{"id":3402,"name":"Yilan County","country_id":216,"country_code":"TW","latitude":"24.70210730","longitude":"121.73775020"},{"id":3403,"name":"Penghu County","country_id":216,"country_code":"TW","latitude":"23.57118990","longitude":"119.57931570"},{"id":3404,"name":"Changhua County","country_id":216,"country_code":"TW","latitude":"24.05179630","longitude":"120.51613520"},{"id":3405,"name":"Pingtung County","country_id":216,"country_code":"TW","latitude":"22.55197590","longitude":"120.54875970"},{"id":3406,"name":"Taichung","country_id":216,"country_code":"TW","latitude":"24.14773580","longitude":"120.67364820"},{"id":3407,"name":"Nantou County","country_id":216,"country_code":"TW","latitude":"23.96099810","longitude":"120.97186380"},{"id":3408,"name":"Chiayi County","country_id":216,"country_code":"TW","latitude":"23.45184280","longitude":"120.25546150"},{"id":3409,"name":"Kaohsiung County","country_id":216,"country_code":"TW","latitude":"22.62727840","longitude":"120.30143530"},{"id":3410,"name":"Taitung County","country_id":216,"country_code":"TW","latitude":"22.79724470","longitude":"121.07137020"},{"id":3411,"name":"Hualien County","country_id":216,"country_code":"TW","latitude":"23.98715890","longitude":"121.60157140"},{"id":3412,"name":"Kaohsiung","country_id":216,"country_code":"TW","latitude":"22.62727840","longitude":"120.30143530"},{"id":3413,"name":"Miaoli County","country_id":216,"country_code":"TW","latitude":"24.56015900","longitude":"120.82142650"},{"id":3414,"name":"Taichung County","country_id":216,"country_code":"TW","latitude":"24.14773580","longitude":"120.67364820"},{"id":3415,"name":"Kinmen","country_id":216,"country_code":"TW","latitude":"24.34877920","longitude":"118.32856440"},{"id":3416,"name":"Yunlin County","country_id":216,"country_code":"TW","latitude":"23.70920330","longitude":"120.43133730"},{"id":3417,"name":"Hsinchu","country_id":216,"country_code":"TW","latitude":"24.81382870","longitude":"120.96747980"},{"id":3418,"name":"Chiayi City","country_id":216,"country_code":"TW","latitude":"23.48007510","longitude":"120.44911130"},{"id":3419,"name":"Taoyuan City","country_id":216,"country_code":"TW","latitude":"24.99362810","longitude":"121.30097980"},{"id":3420,"name":"Lienchiang County","country_id":216,"country_code":"TW","latitude":"26.15055560","longitude":"119.92888890"},{"id":3421,"name":"Tainan","country_id":216,"country_code":"TW","latitude":"22.99972810","longitude":"120.22702770"},{"id":3422,"name":"Taipei","country_id":216,"country_code":"TW","latitude":"25.03296940","longitude":"121.56541770"},{"id":3423,"name":"Hsinchu County","country_id":216,"country_code":"TW","latitude":"24.83872260","longitude":"121.01772460"}]