[{"id":3768,"name":"H\u01b0ng Y\u00ean","country_id":240,"country_code":"VN","latitude":"20.85257110","longitude":"106.01699710"},{"id":3769,"name":"\u0110\u1ed3ng Th\u00e1p","country_id":240,"country_code":"VN","latitude":"10.49379890","longitude":"105.68817880"},{"id":3770,"name":"B\u00e0 R\u1ecba-V\u0169ng T\u00e0u","country_id":240,"country_code":"VN","latitude":"10.54173970","longitude":"107.24299760"},{"id":3771,"name":"Thanh H\u00f3a","country_id":240,"country_code":"VN","latitude":"19.80669200","longitude":"105.78518160"},{"id":3772,"name":"Kon Tum","country_id":240,"country_code":"VN","latitude":"14.34974030","longitude":"108.00046060"},{"id":3773,"name":"\u0110i\u1ec7n Bi\u00ean","country_id":240,"country_code":"VN","latitude":"21.80423090","longitude":"103.10765250"},{"id":3774,"name":"V\u0129nh Ph\u00fac","country_id":240,"country_code":"VN","latitude":"21.36088050","longitude":"105.54743730"},{"id":3775,"name":"Th\u00e1i B\u00ecnh","country_id":240,"country_code":"VN","latitude":"20.44634710","longitude":"106.33658280"},{"id":3776,"name":"Qu\u1ea3ng Nam","country_id":240,"country_code":"VN","latitude":"15.53935380","longitude":"108.01910200"},{"id":3777,"name":"H\u1eadu Giang","country_id":240,"country_code":"VN","latitude":"9.75789800","longitude":"105.64125270"},{"id":3778,"name":"C\u00e0 Mau","country_id":240,"country_code":"VN","latitude":"9.15267280","longitude":"105.19607950"},{"id":3779,"name":"H\u00e0 Giang","country_id":240,"country_code":"VN","latitude":"22.80255880","longitude":"104.97844940"},{"id":3780,"name":"Ngh\u1ec7 An","country_id":240,"country_code":"VN","latitude":"19.23424890","longitude":"104.92003650"},{"id":3781,"name":"Ti\u1ec1n Giang","country_id":240,"country_code":"VN","latitude":"10.44933240","longitude":"106.34205040"},{"id":3782,"name":"Cao B\u1eb1ng","country_id":240,"country_code":"VN","latitude":"22.63568900","longitude":"106.25221430"},{"id":3783,"name":"H\u1ea3i Ph\u00f2ng","country_id":240,"country_code":"VN","latitude":"20.84491150","longitude":"106.68808410"},{"id":3784,"name":"Y\u00ean B\u00e1i","country_id":240,"country_code":"VN","latitude":"21.71676890","longitude":"104.89858780"},{"id":3785,"name":"B\u00ecnh D\u01b0\u01a1ng","country_id":240,"country_code":"VN","latitude":"11.32540240","longitude":"106.47701700"},{"id":3786,"name":"Ninh B\u00ecnh","country_id":240,"country_code":"VN","latitude":"20.25061490","longitude":"105.97445360"},{"id":3787,"name":"B\u00ecnh Thu\u1eadn","country_id":240,"country_code":"VN","latitude":"11.09037030","longitude":"108.07207810"},{"id":3788,"name":"Ninh Thu\u1eadn","country_id":240,"country_code":"VN","latitude":"11.67387670","longitude":"108.86295720"},{"id":3789,"name":"Nam \u0110\u1ecbnh","country_id":240,"country_code":"VN","latitude":"20.43882250","longitude":"106.16210530"},{"id":3790,"name":"V\u0129nh Long","country_id":240,"country_code":"VN","latitude":"10.23957400","longitude":"105.95719280"},{"id":3791,"name":"B\u1eafc Ninh","country_id":240,"country_code":"VN","latitude":"21.12144400","longitude":"106.11105010"},{"id":3792,"name":"L\u1ea1ng S\u01a1n","country_id":240,"country_code":"VN","latitude":"21.85370800","longitude":"106.76151900"},{"id":3793,"name":"Kh\u00e1nh H\u00f2a","country_id":240,"country_code":"VN","latitude":"12.25850980","longitude":"109.05260760"},{"id":3794,"name":"An Giang","country_id":240,"country_code":"VN","latitude":"10.52158360","longitude":"105.12589550"},{"id":3795,"name":"Tuy\u00ean Quang","country_id":240,"country_code":"VN","latitude":"21.77672460","longitude":"105.22801960"},{"id":3796,"name":"B\u1ebfn Tre","country_id":240,"country_code":"VN","latitude":"10.24335560","longitude":"106.37555100"},{"id":3797,"name":"B\u00ecnh Ph\u01b0\u1edbc","country_id":240,"country_code":"VN","latitude":"11.75118940","longitude":"106.72346390"},{"id":3798,"name":"Th\u1eeba Thi\u00ean-Hu\u1ebf","country_id":240,"country_code":"VN","latitude":"16.46739700","longitude":"107.59053260"},{"id":3799,"name":"H\u00f2a B\u00ecnh","country_id":240,"country_code":"VN","latitude":"20.68612650","longitude":"105.31311850"},{"id":3800,"name":"Ki\u00ean Giang","country_id":240,"country_code":"VN","latitude":"9.82495870","longitude":"105.12589550"},{"id":3801,"name":"Ph\u00fa Th\u1ecd","country_id":240,"country_code":"VN","latitude":"21.26844300","longitude":"105.20455730"},{"id":3802,"name":"H\u00e0 Nam","country_id":240,"country_code":"VN","latitude":"20.58351960","longitude":"105.92299000"},{"id":3803,"name":"Qu\u1ea3ng Tr\u1ecb","country_id":240,"country_code":"VN","latitude":"16.74030740","longitude":"107.18546790"},{"id":3804,"name":"B\u1ea1c Li\u00eau","country_id":240,"country_code":"VN","latitude":"9.29400270","longitude":"105.72156630"},{"id":3805,"name":"Tr\u00e0 Vinh","country_id":240,"country_code":"VN","latitude":"9.81274100","longitude":"106.29929120"},{"id":3806,"name":"\u0110\u00e0 N\u1eb5ng","country_id":240,"country_code":"VN","latitude":"16.05440680","longitude":"108.20216670"},{"id":3807,"name":"Th\u00e1i Nguy\u00ean","country_id":240,"country_code":"VN","latitude":"21.56715590","longitude":"105.82520380"},{"id":3808,"name":"Long An","country_id":240,"country_code":"VN","latitude":"10.56071680","longitude":"106.64976230"},{"id":3809,"name":"Qu\u1ea3ng B\u00ecnh","country_id":240,"country_code":"VN","latitude":"17.61027150","longitude":"106.34874740"},{"id":3810,"name":"H\u00e0 N\u1ed9i","country_id":240,"country_code":"VN","latitude":"21.02776440","longitude":"105.83415980"},{"id":3811,"name":"H\u1ed3 Ch\u00ed Minh","country_id":240,"country_code":"VN","latitude":"10.82309890","longitude":"106.62966380"},{"id":3812,"name":"S\u01a1n La","country_id":240,"country_code":"VN","latitude":"21.10222840","longitude":"103.72891670"},{"id":3813,"name":"Gia Lai","country_id":240,"country_code":"VN","latitude":"13.80789430","longitude":"108.10937500"},{"id":3814,"name":"Qu\u1ea3ng Ninh","country_id":240,"country_code":"VN","latitude":"21.00638200","longitude":"107.29251440"},{"id":3815,"name":"B\u1eafc Giang","country_id":240,"country_code":"VN","latitude":"21.28199210","longitude":"106.19747690"},{"id":3816,"name":"H\u00e0 T\u0129nh","country_id":240,"country_code":"VN","latitude":"18.35595370","longitude":"105.88774940"},{"id":3817,"name":"L\u00e0o Cai","country_id":240,"country_code":"VN","latitude":"22.48094310","longitude":"103.97549590"},{"id":3818,"name":"L\u00e2m \u0110\u1ed3ng","country_id":240,"country_code":"VN","latitude":"11.57527910","longitude":"108.14286690"},{"id":3819,"name":"S\u00f3c Tr\u0103ng","country_id":240,"country_code":"VN","latitude":"9.60252100","longitude":"105.97390490"},{"id":3821,"name":"\u0110\u1ed3ng Nai","country_id":240,"country_code":"VN","latitude":"11.06863050","longitude":"107.16759760"},{"id":3822,"name":"B\u1eafc K\u1ea1n","country_id":240,"country_code":"VN","latitude":"22.30329230","longitude":"105.87600400"},{"id":3823,"name":"\u0110\u1eafk N\u00f4ng","country_id":240,"country_code":"VN","latitude":"12.26464760","longitude":"107.60980600"},{"id":3824,"name":"Ph\u00fa Y\u00ean","country_id":240,"country_code":"VN","latitude":"13.08818610","longitude":"109.09287640"},{"id":3825,"name":"Lai Ch\u00e2u","country_id":240,"country_code":"VN","latitude":"22.38622270","longitude":"103.47026310"},{"id":3826,"name":"T\u00e2y Ninh","country_id":240,"country_code":"VN","latitude":"11.33515540","longitude":"106.10988540"},{"id":3827,"name":"H\u1ea3i D\u01b0\u01a1ng","country_id":240,"country_code":"VN","latitude":"20.93734130","longitude":"106.31455420"},{"id":3828,"name":"Qu\u1ea3ng Ng\u00e3i","country_id":240,"country_code":"VN","latitude":"15.12138730","longitude":"108.80441450"},{"id":3829,"name":"\u0110\u1eafk L\u1eafk","country_id":240,"country_code":"VN","latitude":"12.71001160","longitude":"108.23775190"},{"id":3830,"name":"B\u00ecnh \u0110\u1ecbnh","country_id":240,"country_code":"VN","latitude":"14.16653240","longitude":"108.90268300"},{"id":4925,"name":"C\u1ea7n Th\u01a1","country_id":240,"country_code":"VN","latitude":"10.03418510","longitude":"105.72255070"}]